[
  {"name": "Budapest", "lat": 47.4979, "lng": 19.0402, "county": "Budapest"},
  {"name": "Debrecen", "lat": 47.5316, "lng": 21.6273, "county": "Hajdú-Bihar"},
  {"name": "Szeged", "lat": 46.2530, "lng": 20.1482, "county": "Csongrád-Csanád"},
  {"name": "Miskolc", "lat": 48.1035, "lng": 20.7784, "county": "Borsod-Abaúj-Zemplén"},
  {"name": "Pécs", "lat": 46.0727, "lng": 18.2323, "county": "Baranya"},
  {"name": "Győr", "lat": 47.6875, "lng": 17.6351, "county": "Győr-Moson-Sopron"},
  {"name": "Nyíregyháza", "lat": 47.9532, "lng": 21.7271, "county": "Szabolcs-Szatmár-Bereg"},
  {"name": "Kecskemét", "lat": 46.8964, "lng": 19.6897, "county": "Bács-Kiskun"},
  {"name": "Székesfehérvár", "lat": 47.1860, "lng": 18.4225, "county": "Fejér"},
  {"name": "Szombathely", "lat": 47.2307, "lng": 16.6218, "county": "Vas"},
  {"name": "Szolnok", "lat": 47.1621, "lng": 20.1825, "county": "Jász-Nagykun-Szolnok"},
  {"name": "Tatabánya", "lat": 47.5695, "lng": 18.4048, "county": "Komárom-Esztergom"},
  {"name": "Kaposvár", "lat": 46.3594, "lng": 17.7967, "county": "Somogy"},
  {"name": "Érd", "lat": 47.3910, "lng": 18.9124, "county": "Pest"},
  {"name": "Veszprém", "lat": 47.1028, "lng": 17.9093, "county": "Veszprém"},
  {"name": "Békéscsaba", "lat": 46.6704, "lng": 21.0890, "county": "Békés"},
  {"name": "Zalaegerszeg", "lat": 46.8417, "lng": 16.8416, "county": "Zala"},
  {"name": "Sopron", "lat": 47.6817, "lng": 16.5905, "county": "Győr-Moson-Sopron"},
  {"name": "Eger", "lat": 47.9025, "lng": 20.3772, "county": "Heves"},
  {"name": "Nagykanizsa", "lat": 46.4590, "lng": 16.9897, "county": "Zala"},
  {"name": "Dunaújváros", "lat": 46.9619, "lng": 18.9465, "county": "Fejér"},
  {"name": "Hódmezővásárhely", "lat": 46.4181, "lng": 20.3300, "county": "Csongrád-Csanád"},
  {"name": "Szekszárd", "lat": 46.3474, "lng": 18.7062, "county": "Tolna"},
  {"name": "Salgótarján", "lat": 48.0935, "lng": 19.7998, "county": "Nógrád"},
  {"name": "Baja", "lat": 46.1803, "lng": 18.9531, "county": "Bács-Kiskun"},
  {"name": "Ózd", "lat": 48.2202, "lng": 20.2988, "county": "Borsod-Abaúj-Zemplén"},
  {"name": "Szentes", "lat": 46.6485, "lng": 20.2570, "county": "Csongrád-Csanád"},
  {"name": "Gödöllő", "lat": 47.6003, "lng": 19.3552, "county": "Pest"},
  {"name": "Cegléd", "lat": 47.1743, "lng": 19.8020, "county": "Pest"},
  {"name": "Mosonmagyaróvár", "lat": 47.8769, "lng": 17.2692, "county": "Győr-Moson-Sopron"},
  {"name": "Siófok", "lat": 46.9091, "lng": 18.0746, "county": "Somogy"},
  {"name": "Pápa", "lat": 47.3290, "lng": 17.4674, "county": "Veszprém"},
  {"name": "Kiskunfélegyháza", "lat": 46.7126, "lng": 19.8450, "county": "Bács-Kiskun"},
  {"name": "Hajdúböszörmény", "lat": 47.6712, "lng": 21.5152, "county": "Hajdú-Bihar"},
  {"name": "Ajka", "lat": 47.1016, "lng": 17.5551, "county": "Veszprém"},
  {"name": "Vác", "lat": 47.7763, "lng": 19.1372, "county": "Pest"},
  {"name": "Gyöngyös", "lat": 47.7826, "lng": 19.9284, "county": "Heves"},
  {"name": "Kiskunhalas", "lat": 46.4314, "lng": 19.4883, "county": "Bács-Kiskun"},
  {"name": "Monor", "lat": 47.3513, "lng": 19.4476, "county": "Pest"},
  {"name": "Kiskunmajsa", "lat": 46.4908, "lng": 19.7414, "county": "Bács-Kiskun"},
  {"name": "Sárvár", "lat": 47.2541, "lng": 16.9352, "county": "Vas"},
  {"name": "Hatvan", "lat": 47.6667, "lng": 19.6833, "county": "Heves"},
  {"name": "Komárom", "lat": 47.7432, "lng": 18.1190, "county": "Komárom-Esztergom"},
  {"name": "Kalocsa", "lat": 46.5289, "lng": 18.9858, "county": "Bács-Kiskun"},
  {"name": "Körmend", "lat": 47.0094, "lng": 16.6056, "county": "Vas"},
  {"name": "Szentendre", "lat": 47.6667, "lng": 19.0833, "county": "Pest"},
  {"name": "Balatonfüred", "lat": 46.9548, "lng": 17.8756, "county": "Veszprém"},
  {"name": "Esztergom", "lat": 47.7850, "lng": 18.7407, "county": "Komárom-Esztergom"},
  {"name": "Mátészalka", "lat": 47.9544, "lng": 22.3186, "county": "Szabolcs-Szatmár-Bereg"},
  {"name": "Gyula", "lat": 46.6476, "lng": 21.2825, "county": "Békés"},
  {"name": "Szekszárd", "lat": 46.3505, "lng": 18.7091, "county": "Tolna"},
  {"name": "Karcag", "lat": 47.3132, "lng": 20.9307, "county": "Jász-Nagykun-Szolnok"},
  {"name": "Fót", "lat": 47.6094, "lng": 19.1951, "county": "Pest"},
  {"name": "Keszthely", "lat": 46.7681, "lng": 17.2432, "county": "Zala"},
  {"name": "Dunakeszi", "lat": 47.6295, "lng": 19.1415, "county": "Pest"},
  {"name": "Törökszentmiklós", "lat": 47.1833, "lng": 20.4167, "county": "Jász-Nagykun-Szolnok"},
  {"name": "Dombóvár", "lat": 46.3761, "lng": 18.1439, "county": "Tolna"},
  {"name": "Békés", "lat": 46.7667, "lng": 21.1333, "county": "Békés"},
  {"name": "Orosháza", "lat": 46.5667, "lng": 20.6667, "county": "Békés"},
  {"name": "Szarvas", "lat": 46.8667, "lng": 20.5500, "county": "Békés"},
  {"name": "Jászberény", "lat": 47.5000, "lng": 19.9167, "county": "Jász-Nagykun-Szolnok"},
  {"name": "Tiszaújváros", "lat": 47.9333, "lng": 21.0667, "county": "Borsod-Abaúj-Zemplén"},
  {"name": "Püspökladány", "lat": 47.3167, "lng": 21.1167, "county": "Hajdú-Bihar"},
  {"name": "Balmazújváros", "lat": 47.6167, "lng": 21.3500, "county": "Hajdú-Bihar"},
  {"name": "Veresegyház", "lat": 47.6500, "lng": 19.2833, "county": "Pest"},
  {"name": "Tiszavasvári", "lat": 47.9500, "lng": 21.3167, "county": "Szabolcs-Szatmár-Bereg"},
  {"name": "Nyírbátor", "lat": 47.8333, "lng": 22.1333, "county": "Szabolcs-Szatmár-Bereg"},
  {"name": "Mélykút", "lat": 46.2000, "lng": 19.3833, "county": "Bács-Kiskun"},
  {"name": "Ibrány", "lat": 48.1333, "lng": 21.7167, "county": "Szabolcs-Szatmár-Bereg"},
  {"name": "Kisbér", "lat": 47.5000, "lng": 18.0333, "county": "Komárom-Esztergom"},
  {"name": "Tiszafüred", "lat": 47.6167, "lng": 20.7667, "county": "Jász-Nagykun-Szolnok"},
  {"name": "Ráckeve", "lat": 47.1667, "lng": 18.9500, "county": "Pest"},
  {"name": "Sülysáp", "lat": 47.4500, "lng": 19.5333, "county": "Pest"},
  {"name": "Lajosmizse", "lat": 47.0333, "lng": 19.5500, "county": "Bács-Kiskun"},
  {"name": "Barcs", "lat": 45.9500, "lng": 17.4667, "county": "Somogy"},
  {"name": "Sásd", "lat": 46.2500, "lng": 18.1000, "county": "Baranya"},
  {"name": "Celldömölk", "lat": 47.2500, "lng": 17.1500, "county": "Vas"},
  {"name": "Sümeg", "lat": 46.9833, "lng": 17.2833, "county": "Veszprém"},
  {"name": "Nagyatád", "lat": 46.2333, "lng": 17.3667, "county": "Somogy"},
  {"name": "Marcali", "lat": 46.5833, "lng": 17.4167, "county": "Somogy"},
  {"name": "Fonyód", "lat": 46.7500, "lng": 17.5500, "county": "Somogy"},
  {"name": "Tab", "lat": 46.7333, "lng": 18.0333, "county": "Somogy"},
  {"name": "Lengyeltóti", "lat": 46.6667, "lng": 17.6500, "county": "Somogy"},
  {"name": "Balatonlelle", "lat": 46.7833, "lng": 17.6833, "county": "Somogy"},
  {"name": "Balatonboglár", "lat": 46.7833, "lng": 17.6500, "county": "Somogy"},
  {"name": "Fonyód", "lat": 46.7500, "lng": 17.5500, "county": "Somogy"},
  {"name": "Szigetvár", "lat": 46.0500, "lng": 17.8000, "county": "Baranya"},
  {"name": "Sellye", "lat": 45.8667, "lng": 17.8500, "county": "Baranya"},
  {"name": "Villány", "lat": 45.8667, "lng": 18.4500, "county": "Baranya"},
  {"name": "Mohács", "lat": 45.9833, "lng": 18.6833, "county": "Baranya"},
  {"name": "Bóly", "lat": 45.9667, "lng": 18.5167, "county": "Baranya"},
  {"name": "Siklós", "lat": 45.8500, "lng": 18.3000, "county": "Baranya"},
  {"name": "Komló", "lat": 46.1833, "lng": 18.2667, "county": "Baranya"},
  {"name": "Szentlőrinc", "lat": 46.0500, "lng": 17.9833, "county": "Baranya"},
  {"name": "Pécsvárad", "lat": 46.1667, "lng": 18.4167, "county": "Baranya"},
  {"name": "Bonyhád", "lat": 46.3000, "lng": 18.5333, "county": "Tolna"},
  {"name": "Dunaföldvár", "lat": 46.8167, "lng": 18.9333, "county": "Tolna"},
  {"name": "Paks", "lat": 46.6167, "lng": 18.8500, "county": "Tolna"},
  {"name": "Tamási", "lat": 46.6333, "lng": 18.2833, "county": "Tolna"},
  {"name": "Bátaszék", "lat": 46.2000, "lng": 18.7167, "county": "Tolna"},
  {"name": "Simontornya", "lat": 46.7500, "lng": 18.5500, "county": "Tolna"}
]
